{
    "al": [
        {
            "name": "wrappermike",
            "services": "printing services",
            "address": "1634 kent dairy rd",
            "city": "alabaster",
            "state": "al",
            "zip": "35007",
            "phone": "(205) 624-2300",
            "lat": 33.215291787671234,
            "lng": -86.83690283561644
        },
        {
            "name": "vinyl solutions",
            "services": "sign making",
            "address": "25469 canal rd",
            "city": "orange beach",
            "state": "al",
            "zip": "36561",
            "phone": "(251) 981-1881",
            "lat": 30.2897707,
            "lng": -87.59084185
        },
        {
            "name": "metro signs & wraps",
            "services": "auto customization",
            "address": "108 ben giles dr",
            "city": "huntsville",
            "state": "al",
            "zip": "35803",
            "phone": "(256) 536-6116",
            "lat": 34.63884,
            "lng": -86.565963
        },
        {
            "name": "wrap it customs llc",
            "services": "auto customization",
            "address": "111 moore springs cir",
            "city": "huntsville",
            "state": "al",
            "zip": "(256) 542-9727",
            "phone": "",
            "lat": null,
            "lng": null
        },
        {
            "name": "cgs vinyl",
            "services": "sign making",
            "address": "102 hilltop business dr",
            "city": "pelham",
            "state": "al",
            "zip": "35124",
            "phone": "(205) 259-5902",
            "lat": 33.33604582001964,
            "lng": -86.79293184056314
        },
        {
            "name": "vinyl co. llc",
            "services": "sign making",
            "address": "20189 hadley rd",
            "city": "foley",
            "state": "al",
            "zip": "36535",
            "phone": "(251) 943-4734",
            "lat": 30.443506,
            "lng": -87.68046326530612
        },
        {
            "name": "vinyl solutions",
            "services": "sign making",
            "address": "25469 canal rd",
            "city": "orange beach",
            "state": "al",
            "zip": "36561",
            "phone": "(251) 981-1881",
            "lat": 30.2897707,
            "lng": -87.59084185
        }
    ],
    "ak": [
        {
            "name": "signs now anchorage threebestrated",
            "services": "sign making",
            "address": "5445 old seward hwy ste 3",
            "city": "anchorage",
            "state": "ak",
            "zip": "99518",
            "phone": "(907) 562-7672",
            "lat": 61.17157759547026,
            "lng": -149.86790026048183
        },
        {
            "name": "sergio's signs & graphics",
            "services": "sign making",
            "address": "6522 homer dr",
            "city": "anchorage",
            "state": "ak",
            "zip": "99518",
            "phone": "(907) 277-9322",
            "lat": 61.16170299017541,
            "lng": -149.85705714589784
        },
        {
            "name": "hi-res graphics",
            "services": "graphic designer",
            "address": "16946 n eagle riverloop rd",
            "city": "eagle river",
            "state": "ak",
            "zip": "99577",
            "phone": "(907) 694-1280",
            "lat": null,
            "lng": null
        }
    ],
    "az": [
        {
            "name": "apex customs",
            "services": "auto customization",
            "address": "1522 w todd dr ste c104",
            "city": "tempe",
            "state": "az",
            "zip": "85283",
            "phone": "(480) 331-3924",
            "lat": 33.35284592771964,
            "lng": -111.9635161788741
        },
        {
            "name": "fineline vehicle tint and vinyl wraps",
            "services": "car window tinting",
            "address": "1920 e 3rd st",
            "city": "tempe",
            "state": "az",
            "zip": "85281",
            "phone": "(602) 800-4974",
            "lat": 33.42750626530612,
            "lng": -111.90376853061225
        },
        {
            "name": "vinyl vixen wraps",
            "services": "body shop",
            "address": "720 n golden key st",
            "city": "gilbert",
            "state": "az",
            "zip": "85233",
            "phone": "(602) 762-3484",
            "lat": 33.361708300000004,
            "lng": -111.80281838344456
        },
        {
            "name": "tek wrap",
            "services": "printing services",
            "address": "1640 acoma blvd w ste a110",
            "city": "lake havasu city",
            "state": "az",
            "zip": "86403",
            "phone": "(928) 230-4226",
            "lat": 34.496023409309515,
            "lng": -114.35295400730126
        },
        {
            "name": "the wrap room",
            "services": "auto customization",
            "address": "2140 e 5th st",
            "city": "tempe",
            "state": "az",
            "zip": "85288",
            "phone": "(480) 353-8240",
            "lat": 33.4260654,
            "lng": -111.8944162
        },
        {
            "name": "genesis vinyl wraps",
            "services": "car window tinting",
            "address": "5221 w montebello ave b11",
            "city": "glendale",
            "state": "az",
            "zip": "85301",
            "phone": "(602) 367-6148",
            "lat": 33.5198499,
            "lng": -112.171571
        },
        {
            "name": "fast-trac designs",
            "services": "screen printing/t-shirt printing",
            "address": "2518 w morningside dr",
            "city": "phoenix",
            "state": "az",
            "zip": "85023",
            "phone": "(623) 780-1168",
            "lat": 33.648983,
            "lng": -112.11237
        },
        {
            "name": "ppf werks",
            "services": "auto customization",
            "address": "2010 w parkside ln",
            "city": "phoenix",
            "state": "az",
            "zip": "85027",
            "phone": "(602) 663-2967",
            "lat": 33.6964537,
            "lng": -112.1026854
        },
        {
            "name": "impulsive wraps",
            "services": "body shop",
            "address": "660 n neely st ste 1",
            "city": "gilbert",
            "state": "az",
            "zip": "85233",
            "phone": "(480) 307-0572",
            "lat": 33.36041315,
            "lng": -111.79918045
        },
        {
            "name": "auto trim plus",
            "services": "car window tinting",
            "address": "1038 commerce dr ste b",
            "city": "prescott",
            "state": "az",
            "zip": "86305",
            "phone": "(928) 777-8380",
            "lat": 34.60504665372753,
            "lng": -112.45796570864061
        }
    ],
    "ar": [
        {
            "name": "raptor wrap and sign",
            "services": "sign making",
            "address": "1514 w hudson rd ste 1",
            "city": "rogers",
            "state": "ar",
            "zip": "72756",
            "phone": "(479) 372-4334",
            "lat": 36.355486,
            "lng": -94.13931457142857
        },
        {
            "name": "rolln wrapz",
            "services": "vehicle wrap",
            "address": "4420 e 43rd st",
            "city": "north little rock",
            "state": "ar",
            "zip": "72117",
            "phone": "(501) 945-9727",
            "lat": 34.79347361303212,
            "lng": -92.2140153533118
        },
        {
            "name": "pinnacle signs & graphics threebestrated",
            "services": "sign making",
            "address": "7610 counts massie rd a",
            "city": "north little rock",
            "state": "ar",
            "zip": "AR",
            "phone": "72113",
            "lat": 34.8306883807344,
            "lng": -92.38265719446416
        },
        {
            "name": "arkansas wraps",
            "services": "sign making",
            "address": "110 crawford st",
            "city": "hot springs",
            "state": "ar",
            "zip": "71913",
            "phone": "(501) 525-7446",
            "lat": 34.47681393970689,
            "lng": -93.06021673532875
        },
        {
            "name": "fellers",
            "services": "wholesaler",
            "address": "4205 s shackleford rd ste d",
            "city": "little rock",
            "state": "ar",
            "zip": "72204",
            "phone": "(800) 654-8405",
            "lat": 34.71509154766859,
            "lng": -92.39190582667136
        },
        {
            "name": "graffiti graffix",
            "services": "printing services",
            "address": "1300 john harden dr",
            "city": "jacksonville",
            "state": "ar",
            "zip": "72076",
            "phone": "(501) 241-2124",
            "lat": 34.87843485933903,
            "lng": -92.11530930224498
        },
        {
            "name": "pro tint and graphics",
            "services": "home window tinting",
            "address": "110 crawford st",
            "city": "hot springs",
            "state": "ar",
            "zip": "71913",
            "phone": "(501) 525-7277",
            "lat": 34.47681393970689,
            "lng": -93.06021673532875
        },
        {
            "name": "imprenta printing & signs",
            "services": "printing services",
            "address": "7524 baseline rd",
            "city": "little rock",
            "state": "ar",
            "zip": "72209",
            "phone": "(501) 570-0333",
            "lat": 34.670082550000004,
            "lng": -92.36131736832536
        },
        {
            "name": "northwest arkansas wrapped",
            "services": "auto customization",
            "address": "129 w kelley dr",
            "city": "rogers",
            "state": "ar",
            "zip": "72756",
            "phone": "(479) 228-3199",
            "lat": 36.359632,
            "lng": -94.115924
        },
        {
            "name": "fenix associates",
            "services": "business signage",
            "address": "129 w kelley dr",
            "city": "rogers",
            "state": "ar",
            "zip": "72756",
            "phone": "(479) 616-7482",
            "lat": 36.359632,
            "lng": -94.115924
        },
        {
            "name": "ozk wraps",
            "services": "sign making",
            "address": "1111 s walton blvd",
            "city": "bentonville",
            "state": "ar",
            "zip": "72712",
            "phone": "(479) 378-1899",
            "lat": 36.3595875,
            "lng": -94.2151343
        }
    ],
    "ca": [
        {
            "name": "magic wrapz",
            "services": "vehicle wrapping service",
            "address": "",
            "city": "pacoima",
            "state": "ca",
            "zip": "",
            "phone": "",
            "lat": 34.2625025,
            "lng": -118.427027
        },
        {
            "name": "4tunes wrap",
            "services": "window tinting service",
            "address": "",
            "city": "agoura hills",
            "state": "ca",
            "zip": "",
            "phone": "",
            "lat": 34.14791,
            "lng": -118.7657042
        },
        {
            "name": "hussle customz",
            "services": "vehicle wrapping service",
            "address": "",
            "city": "van nuys",
            "state": "ca",
            "zip": "",
            "phone": "",
            "lat": 34.1866193,
            "lng": -118.4486675
        },
        {
            "name": "the wrap shop",
            "services": "vehicle wrapping service",
            "address": "",
            "city": "canoga park",
            "state": "ca",
            "zip": "",
            "phone": "",
            "lat": 34.2011078,
            "lng": -118.5978087
        },
        {
            "name": "raptor wraps printing & installation",
            "services": "vehicle wrapping service",
            "address": "",
            "city": "lawndale",
            "state": "ca",
            "zip": "",
            "phone": "",
            "lat": 33.8885217,
            "lng": -118.3531991
        },
        {
            "name": "ezie wraps",
            "services": "vinyl sign shop",
            "address": "",
            "city": "san fernando",
            "state": "ca",
            "zip": "",
            "phone": "",
            "lat": 34.28497,
            "lng": -118.437652
        },
        {
            "name": "impressive wrap",
            "services": "vehicle wrapping service",
            "address": "",
            "city": "south el monte",
            "state": "ca",
            "zip": "",
            "phone": "",
            "lat": 34.0519548,
            "lng": -118.0467339
        },
        {
            "name": "socal vinyl - orange county vinyl wrap and certified xpel ppf install center",
            "services": "car detailing service",
            "address": "",
            "city": "anaheim",
            "state": "ca",
            "zip": "",
            "phone": "",
            "lat": 33.8347516,
            "lng": -117.911732
        },
        {
            "name": "impeccable wraps",
            "services": "vinyl sign shop",
            "address": "",
            "city": "gardena",
            "state": "ca",
            "zip": "",
            "phone": "",
            "lat": 33.8815702,
            "lng": -118.2918113
        },
        {
            "name": "la vinyl",
            "services": "vehicle wrapping service",
            "address": "",
            "city": "canoga park",
            "state": "ca",
            "zip": "",
            "phone": "",
            "lat": 34.2011078,
            "lng": -118.5978087
        },
        {
            "name": "wrap bullys | vehicle wraps and paint protection film (ppf)",
            "services": "vehicle wrapping service",
            "address": "",
            "city": "gardena",
            "state": "ca",
            "zip": "",
            "phone": "",
            "lat": 33.8815702,
            "lng": -118.2918113
        },
        {
            "name": "oc wrap shop",
            "services": "vehicle wrapping service",
            "address": "",
            "city": "irvine",
            "state": "ca",
            "zip": "",
            "phone": "",
            "lat": 33.6856969,
            "lng": -117.825981
        },
        {
            "name": "wrap legacy",
            "services": "auto body shop",
            "address": "",
            "city": "upland",
            "state": "ca",
            "zip": "",
            "phone": "",
            "lat": 34.09751,
            "lng": -117.6483876
        },
        {
            "name": "signs and car wraps",
            "services": "sign shop",
            "address": "",
            "city": "panorama city",
            "state": "ca",
            "zip": "",
            "phone": "",
            "lat": 34.2242902,
            "lng": -118.4453745
        },
        {
            "name": "exotic car wrap los angeles",
            "services": "vehicle wrapping service",
            "address": "",
            "city": "los angeles",
            "state": "ca",
            "zip": "",
            "phone": "",
            "lat": 34.0536909,
            "lng": -118.242766
        },
        {
            "name": "az wraps: ppf & car wrap",
            "services": "vehicle wrapping service",
            "address": "",
            "city": "los angeles",
            "state": "ca",
            "zip": "",
            "phone": "",
            "lat": 34.0536909,
            "lng": -118.242766
        },
        {
            "name": "innovative wrap",
            "services": "vehicle wrapping service",
            "address": "",
            "city": "city of industry",
            "state": "ca",
            "zip": "",
            "phone": "",
            "lat": 34.0182252,
            "lng": -117.9593061
        },
        {
            "name": "maverick wraps",
            "services": "sign shop",
            "address": "",
            "city": "temple city",
            "state": "ca",
            "zip": "",
            "phone": "",
            "lat": 34.1082994,
            "lng": -118.0577568
        },
        {
            "name": "kustom wraps",
            "services": "sign shop",
            "address": "",
            "city": "tarzana",
            "state": "ca",
            "zip": "",
            "phone": "",
            "lat": 34.1689262,
            "lng": -118.5365791
        },
        {
            "name": "oc wraps",
            "services": "sign making",
            "address": "615 n berry st",
            "city": "brea",
            "state": "ca",
            "zip": "92821",
            "phone": "(714) 987-3676",
            "lat": 33.924578,
            "lng": -117.9067424
        },
        {
            "name": "express vinyl wraps",
            "services": "auto customization",
            "address": "5933 sea lion pl ste #103",
            "city": "carlsbad",
            "state": "ca",
            "zip": "92010",
            "phone": "(619) 341-7440",
            "lat": 33.13373644368818,
            "lng": -117.24841368896655
        },
        {
            "name": "endless autosalon vehicle wraps and automotive window tint",
            "services": "auto customization",
            "address": "26015 jefferson avenue",
            "city": "murrieta",
            "state": "ca",
            "zip": "92562",
            "phone": "(951) 228-0010",
            "lat": 33.53988450521254,
            "lng": -117.18602404728078
        },
        {
            "name": "sticker city",
            "services": "auto detailing",
            "address": "4638 van nuys blvd",
            "city": "sherman oaks",
            "state": "ca",
            "zip": "91403",
            "phone": "(818) 905-5678",
            "lat": 34.155426761904764,
            "lng": -118.44859552380952
        },
        {
            "name": "aura vinyl wrap",
            "services": "arts & crafts",
            "address": "7680 talbert ave unit e2",
            "city": "huntington beach",
            "state": "ca",
            "zip": "(323) 632-5574",
            "phone": "",
            "lat": 33.70068825,
            "lng": -117.99506950566857
        },
        {
            "name": "the wrap shop",
            "services": "vehicle wrap",
            "address": "9027 canoga ave ste a",
            "city": "canoga park",
            "state": "ca",
            "zip": "91304",
            "phone": "(818) 762-1010",
            "lat": 34.1947452,
            "lng": -118.5974946
        },
        {
            "name": "haus of wraps",
            "services": "auto customization",
            "address": "8545 arjons dr ste o",
            "city": "san diego",
            "state": "ca",
            "zip": "92126",
            "phone": "(619) 512-9727",
            "lat": 32.892831,
            "lng": -117.139627
        },
        {
            "name": "so cal wraps",
            "services": "commercial printer",
            "address": "15875 santa ana ave",
            "city": "fontana",
            "state": "ca",
            "zip": "92337",
            "phone": "(909) 434-0333",
            "lat": 34.055657,
            "lng": -117.45884106139633
        },
        {
            "name": "signs and car wraps",
            "services": "sign making",
            "address": "14650 parthenia st ste k-6",
            "city": "panorama city",
            "state": "ca",
            "zip": "91402",
            "phone": "(818) 895-7446",
            "lat": 34.22827292376129,
            "lng": -118.45256683050246
        },
        {
            "name": "rolotech car wraps",
            "services": "vehicle wrap",
            "address": "1365 n dynamics st ste f",
            "city": "anaheim",
            "state": "ca",
            "zip": "92806",
            "phone": "(714) 782-7149",
            "lat": 33.862342,
            "lng": -117.853125
        },
        {
            "name": "vinyl teks",
            "services": "auto customization",
            "address": "4300 wible rd ste a",
            "city": "bakersfield",
            "state": "ca",
            "zip": "93313",
            "phone": "(661) 800-8325",
            "lat": 35.31562531155779,
            "lng": -119.038857
        },
        {
            "name": "platinum wraps",
            "services": "advertising agency",
            "address": "1680 camino real #a1",
            "city": "san bernardino",
            "state": "ca",
            "zip": "92408",
            "phone": "(909) 587-5459",
            "lat": 34.880506,
            "lng": -117.117533
        },
        {
            "name": "print shop fresno & vehicle wraps",
            "services": "printing services",
            "address": "2617 n fowler ave",
            "city": "fresno",
            "state": "ca",
            "zip": "93727",
            "phone": "(559) 696-9946",
            "lat": 36.775398911393744,
            "lng": -119.68232190786573
        },
        {
            "name": "vinyl teks",
            "services": "auto customization",
            "address": "4300 wible rd ste a",
            "city": "bakersfield",
            "state": "ca",
            "zip": "93313",
            "phone": "(661) 800-8325",
            "lat": 35.31562531155779,
            "lng": -119.038857
        }
    ],
    "co": [
        {
            "name": "pro graphic",
            "services": "graphic designer",
            "address": "7245 gilpin way ste 220",
            "city": "denver",
            "state": "co",
            "zip": "80229",
            "phone": "(303) 591-0085",
            "lat": null,
            "lng": null
        },
        {
            "name": "big dog wraps & graphics llc",
            "services": "vehicle wrap",
            "address": "735 park st ste f",
            "city": "castle rock",
            "state": "co",
            "zip": "80109",
            "phone": "(720) 257-5286",
            "lat": 39.377688650070255,
            "lng": -104.8659175273439
        },
        {
            "name": "fleet wrap hqvehicle wrap",
            "services": "3801 e florida ave ste #400",
            "address": "denver",
            "city": "co",
            "state": "80210",
            "zip": "(720) 588-9800",
            "phone": "",
            "lat": 39.7392364,
            "lng": -104.984862
        },
        {
            "name": "first class tint and vinyl wrap",
            "services": "auto customization",
            "address": "5700 w alameda ave",
            "city": "lakewood",
            "state": "co",
            "zip": "80226",
            "phone": "(720) 250-9331",
            "lat": 39.711084,
            "lng": -105.059285
        },
        {
            "name": "allure vinyl wraps",
            "services": "commercial printer",
            "address": "8085 oneida st ste 105",
            "city": "commerce city",
            "state": "co",
            "zip": "",
            "phone": "",
            "lat": 39.84357128571428,
            "lng": -104.9077292857143
        },
        {
            "name": "auto film solutions",
            "services": "car window tinting",
            "address": "6075 terminal ave",
            "city": "colorado springs",
            "state": "co",
            "zip": "80915",
            "phone": "(719) 985-5633",
            "lat": 38.8420931,
            "lng": -104.7203402
        },
        {
            "name": "pro graphic install",
            "services": "graphic designer",
            "address": "7245 gilpin way",
            "city": "denver",
            "state": "co",
            "zip": "80229",
            "phone": "(303) 945-6977",
            "lat": null,
            "lng": null
        },
        {
            "name": "voodoo vinyl wraps",
            "services": "printing services",
            "address": "5394 county road 154 ste 10",
            "city": "glenwood springs",
            "state": "co",
            "zip": "81601",
            "phone": "(970) 930-5535",
            "lat": 39.4702086,
            "lng": -107.2711486
        },
        {
            "name": "gorilla wrap & custom window tint",
            "services": "car window tinting",
            "address": "1695 w sheri ln",
            "city": "littleton",
            "state": "co",
            "zip": "80120",
            "phone": "(720) 900-1227",
            "lat": 39.62296514285714,
            "lng": -105.00812971428572
        },
        {
            "name": "sign shop ltd",
            "services": "sign making",
            "address": "3505 e platte ave",
            "city": "colorado springs",
            "state": "co",
            "zip": "80909",
            "phone": "(719) 574-3511",
            "lat": 38.83931293079363,
            "lng": -104.76279854624426
        },
        {
            "name": "dynamic customs",
            "services": "car window tinting",
            "address": "513 n link lane unit c",
            "city": "fort collins",
            "state": "co",
            "zip": "80524",
            "phone": "(970) 236-9760",
            "lat": null,
            "lng": null
        },
        {
            "name": "drive window tinting & clear bra",
            "services": "car window tinting",
            "address": "7338 s alton way unit 16-h",
            "city": "centennial",
            "state": "co",
            "zip": "80112",
            "phone": "(303) 558-6497",
            "lat": 39.58827427695675,
            "lng": -104.88360943469685
        },
        {
            "name": "touch of shade",
            "services": "car window tinting",
            "address": "3609 austin bluffs pkwy ste 12",
            "city": "colorado springs",
            "state": "co",
            "zip": "80918",
            "phone": "(719) 266-6852",
            "lat": 38.8900554,
            "lng": -104.7605561
        },
        {
            "name": "big picture graphics yellowpages",
            "services": "graphic designer",
            "address": "7330 reynolds dr",
            "city": "sedalia",
            "state": "co",
            "zip": "80135",
            "phone": "(720) 881-3988",
            "lat": null,
            "lng": null
        },
        {
            "name": "the works automotive detail",
            "services": "auto detailing",
            "address": "2907 55th st unit 7a",
            "city": "boulder",
            "state": "co",
            "zip": "80301",
            "phone": "(720) 600-4570",
            "lat": 40.0276283,
            "lng": -105.2275024
        }
    ],
    "ct": [
        {
            "name": "stick it graphics vehicle wraps",
            "services": "vehicle wrap",
            "address": "130 scott rd ste 2",
            "city": "waterbury",
            "state": "ct",
            "zip": "06705",
            "phone": "(203) 631-6625",
            "lat": 41.5389016,
            "lng": -72.99257363203046
        },
        {
            "name": "lr custom wraps inc",
            "services": "auto customization",
            "address": "37 prince ave",
            "city": "newington",
            "state": "ct",
            "zip": "06111",
            "phone": "(860) 849-9961",
            "lat": null,
            "lng": null
        },
        {
            "name": "pro signs & wraps | vehicle wraps & decals | vinyl lettering | sign shop",
            "services": "sign making",
            "address": "45 cedar st unit 01",
            "city": "stamford",
            "state": "ct",
            "zip": "06902",
            "phone": "(203) 517-9789",
            "lat": 41.0425974,
            "lng": -73.5354236
        },
        {
            "name": "d&f wraps",
            "services": "vehicle wrap",
            "address": "325 sandbank road unit 1",
            "city": "cheshire",
            "state": "ct",
            "zip": "06410",
            "phone": "(860) 550-1873",
            "lat": null,
            "lng": null
        },
        {
            "name": "m & m auto detailing llc",
            "services": "auto detailing",
            "address": "799 hebron ave ste 2",
            "city": "glastonbury",
            "state": "ct",
            "zip": "06033",
            "phone": "(860) 430-1889",
            "lat": 41.7098502,
            "lng": -72.4894137
        },
        {
            "name": "g-force signs & graphics",
            "services": "sign making",
            "address": "52 connecticut ave ste b",
            "city": "south windsor",
            "state": "ct",
            "zip": "06074",
            "phone": "(860) 787-5338",
            "lat": 41.824256,
            "lng": -72.6009858
        },
        {
            "name": "the lab: legends auto boutique",
            "services": "car dealer",
            "address": "150 universal dr",
            "city": "north haven",
            "state": "ct",
            "zip": "06473",
            "phone": "(475) 254-8315",
            "lat": null,
            "lng": null
        },
        {
            "name": "innovation - auto paint protection ppf | ceramic pro | vinyl wraps | tint | detail",
            "services": "auto detailing",
            "address": "154 kings highway cutoff",
            "city": "fairfield",
            "state": "ct",
            "zip": "06824",
            "phone": "",
            "lat": null,
            "lng": null
        },
        {
            "name": "signarama orange (new haven)",
            "services": "ct",
            "address": "sign making",
            "city": "553 boston post rd",
            "state": "CT",
            "zip": "CT",
            "phone": "06477",
            "lat": null,
            "lng": null
        },
        {
            "name": "fellers inc",
            "services": "wholesaler",
            "address": "258 prestige park rd",
            "city": "east hartford",
            "state": "ct",
            "zip": "06108",
            "phone": "(800) 654-8405",
            "lat": null,
            "lng": null
        },
        {
            "name": "signarama vernon",
            "services": "sign making",
            "address": "536 talcottville rd",
            "city": "vernon",
            "state": "ct",
            "zip": "06066",
            "phone": "(860) 870-7446",
            "lat": null,
            "lng": null
        },
        {
            "name": "d&f wraps",
            "services": "vehicle wrap",
            "address": "325 sandbank road unit 1",
            "city": "cheshire",
            "state": "ct",
            "zip": "06410",
            "phone": "(860) 550-1873",
            "lat": null,
            "lng": null
        },
        {
            "name": "innovation - auto paint protection ppf | ceramic pro | vinyl wraps | tint | detail",
            "services": "auto detailing",
            "address": "154 kings highway cutoff",
            "city": "fairfield",
            "state": "ct",
            "zip": "06824",
            "phone": "",
            "lat": null,
            "lng": null
        },
        {
            "name": "pro signs & wraps | vehicle wraps & decals | vinyl lettering | sign shop",
            "services": "sign making",
            "address": "45 cedar st unit 01",
            "city": "stamford",
            "state": "ct",
            "zip": "06902",
            "phone": "(203) 517-9789",
            "lat": 41.0425974,
            "lng": -73.5354236
        }
    ],
    "de": [
        {
            "name": "302 wraps",
            "services": "auto customization",
            "address": "3966 n dupont highway ste c",
            "city": "dover",
            "state": "de",
            "zip": "Null",
            "phone": "(302) 241-8957",
            "lat": 39.204741338669955,
            "lng": -75.562597769045
        },
        {
            "name": "spray less wraps and graphics",
            "services": "vehicle wrap",
            "address": "130 executive dr",
            "city": "newark",
            "state": "de",
            "zip": "19702",
            "phone": "(302) 722-5589",
            "lat": null,
            "lng": null
        },
        {
            "name": "impact graphic & signs llc",
            "services": "vehicle wrap",
            "address": "415 harrington st",
            "city": "seaford",
            "state": "de",
            "zip": "19973",
            "phone": "(302) 337-7076",
            "lat": 38.63685715,
            "lng": -75.6192688688831
        }
    ],
    "fl": [
        {
            "name": "vinyl bros",
            "services": "vehicle wrap",
            "address": "5668 gulf breeze pkwy unit 4",
            "city": "gulf breeze",
            "state": "fl",
            "zip": "32563",
            "phone": "(850) 396-5977",
            "lat": 30.4025346,
            "lng": -86.9856974
        },
        {
            "name": "tampa auto wraps",
            "services": "vehicle wrap",
            "address": "12204 n florida ave",
            "city": "tampa",
            "state": "fl",
            "zip": "33612",
            "phone": "(813) 892-9420",
            "lat": 28.058946161073823,
            "lng": -82.45945915436242
        },
        {
            "name": "hit signs & vinyl wraps",
            "services": "sign making",
            "address": "621 27th st s",
            "city": "saint petersburg",
            "state": "fl",
            "zip": "33712",
            "phone": "(727) 322-3636",
            "lat": 27.76442724489796,
            "lng": -82.66995793877551
        },
        {
            "name": "wraptek",
            "services": "vehicle wrap",
            "address": "1110 ne pine island rd ste 5",
            "city": "cape coral",
            "state": "fl",
            "zip": "33909",
            "phone": "(239) 221-9727",
            "lat": 26.661612246765927,
            "lng": -81.95333331846702
        },
        {
            "name": "vinylwerkz wraps and graphics",
            "services": "auto customization",
            "address": "5937 ravenswood rd # h10",
            "city": "fort lauderdale",
            "state": "fl",
            "zip": "33312",
            "phone": "(954) 468-9727",
            "lat": null,
            "lng": null
        },
        {
            "name": "#201wrap st. augustine",
            "services": "auto customization",
            "address": "1515 county road 210 w",
            "city": "saint johns",
            "state": "fl",
            "zip": "32259",
            "phone": "(904) 209-4724",
            "lat": null,
            "lng": null
        },
        {
            "name": "the wrap factory inc.",
            "services": "auto customization",
            "address": "holiday",
            "city": "fl",
            "state": "fl",
            "zip": "",
            "phone": "",
            "lat": 28.187755,
            "lng": -82.74160807073932
        },
        {
            "name": "vinyl bros",
            "services": "vehicle wrap",
            "address": "5668 gulf breeze pkwy unit 4",
            "city": "gulf breeze",
            "state": "fl",
            "zip": "32563",
            "phone": "(850) 396-5977",
            "lat": 30.4025346,
            "lng": -86.9856974
        },
        {
            "name": "auto art vinyl graphics",
            "services": "vehicle wrap",
            "address": "1535 s cypress dr ste 7 & 8",
            "city": "jupiter",
            "state": "fl",
            "zip": "33469",
            "phone": "(561) 746-4645",
            "lat": 26.9530956,
            "lng": -80.0879488
        },
        {
            "name": "side effects custom wraps",
            "services": "sign making",
            "address": "1842 s segrave st ste a",
            "city": "south daytona",
            "state": "fl",
            "zip": "32119",
            "phone": "(386) 333-9906",
            "lat": 29.1755028,
            "lng": -81.0077088
        },
        {
            "name": "affordable signs and wraps llc",
            "services": "printing services",
            "address": "6859 haines rd n",
            "city": "pinellas park",
            "state": "fl",
            "zip": "33781",
            "phone": "(727) 498-8900",
            "lat": 27.834414,
            "lng": -82.6800748582649
        },
        {
            "name": "wrapster - vehicle wraps & more",
            "services": "vehicle wrap",
            "address": "16171 san carlos blvd unit 2",
            "city": "fort myers",
            "state": "fl",
            "zip": "33908",
            "phone": "(239) 482-5369",
            "lat": 26.4535431,
            "lng": -81.9552504
        },
        {
            "name": "amazing signs - tampa signs company | custom signs | vinyl signs | vehicle wraps",
            "services": "sign making",
            "address": "3875 correia dr",
            "city": "zephyrhills",
            "state": "fl",
            "zip": "33542",
            "phone": "(813) 779-7446",
            "lat": 28.212988,
            "lng": -82.148589
        },
        {
            "name": "sage auto studios",
            "services": "auto detailing",
            "address": "4702 lena rd",
            "city": "lakewood ranch",
            "state": "fl",
            "zip": "34211",
            "phone": "(941) 306-9659",
            "lat": null,
            "lng": null
        },
        {
            "name": "ultimate wraps fl",
            "services": "auto customization",
            "address": "1314 spruce ave",
            "city": "orlando",
            "state": "fl",
            "zip": "32824",
            "phone": "(407) 842-1444",
            "lat": 28.5757974,
            "lng": -81.3819588
        },
        {
            "name": "vinyl bros",
            "services": "vehicle wrap",
            "address": "5668 gulf breeze pkwy unit 4",
            "city": "gulf breeze",
            "state": "fl",
            "zip": "32563",
            "phone": "(850) 396-5977",
            "lat": 30.4025346,
            "lng": -86.9856974
        }
    ],
    "ga": [
        {
            "name": "atlanta custom wraps",
            "services": "auto customization",
            "address": "110 londonderry ct ste 108",
            "city": "woodstock",
            "state": "ga",
            "zip": "30188",
            "phone": "(678) 232-3424",
            "lat": null,
            "lng": null
        },
        {
            "name": "smb customs & vinyl wrap",
            "services": "auto customization",
            "address": "2633 bobo rd ste 1",
            "city": "dallas",
            "state": "ga",
            "zip": "",
            "phone": "",
            "lat": null,
            "lng": null
        },
        {
            "name": "wrap it up vinyl & more!",
            "services": "auto customization",
            "address": "713 cooper st",
            "city": "cedartown",
            "state": "ga",
            "zip": "",
            "phone": "",
            "lat": 34.006109525252526,
            "lng": -85.24612025252526
        },
        {
            "name": "my window tinting & vinyl wraps",
            "services": "car window tinting",
            "address": "7190 s sweetwater rd",
            "city": "lithia springs",
            "state": "ga",
            "zip": "30122",
            "phone": "(770) 926-5949",
            "lat": 33.779947086791616,
            "lng": -84.65516292924477
        },
        {
            "name": "majestic touch custom vinyl wraps",
            "services": "auto customization",
            "address": "5238 hill rd",
            "city": "acworth",
            "state": "ga",
            "zip": "30101",
            "phone": "(678) 878-9587",
            "lat": null,
            "lng": null
        },
        {
            "name": "wrap it up!",
            "services": "vinyl and more. llc",
            "address": "251 blacks bluff rd sw",
            "city": "rome",
            "state": "ga",
            "zip": "",
            "phone": "",
            "lat": 34.22410464878794,
            "lng": -85.19477923683952
        },
        {
            "name": "quality wraps llc",
            "services": "auto customization",
            "address": "5292 oakdale rd se",
            "city": "smyrna",
            "state": "ga",
            "zip": "30082",
            "phone": "(770) 853-8731",
            "lat": 33.82599095335316,
            "lng": -84.49569653780321
        },
        {
            "name": "atlanta vinyl car wrap",
            "services": "vehicle wrap",
            "address": "636 northside dr nw",
            "city": "atlanta",
            "state": "ga",
            "zip": "30318",
            "phone": "(404) 383-4622",
            "lat": 33.774442642857146,
            "lng": -84.40816914285715
        },
        {
            "name": "atlanta custom wraps",
            "services": "auto customization",
            "address": "110 londonderry ct ste 108",
            "city": "woodstock",
            "state": "ga",
            "zip": "30188",
            "phone": "(678) 232-3424",
            "lat": null,
            "lng": null
        },
        {
            "name": "wrap stars atl",
            "services": "vehicle wrap",
            "address": "875 gettysburg trl ne",
            "city": "kennesaw",
            "state": "ga",
            "zip": "30144",
            "phone": "(770) 378-5457",
            "lat": null,
            "lng": null
        },
        {
            "name": "n'style wraps and coatings",
            "services": "auto customization",
            "address": "1730 cumberland point dr ste 7",
            "city": "marietta",
            "state": "ga",
            "zip": "30067",
            "phone": "(404) 580-1749",
            "lat": 33.9106775043305,
            "lng": -84.49345751039763
        },
        {
            "name": "my window tinting & vinyl wraps",
            "services": "car window tinting",
            "address": "7190 s sweetwater rd",
            "city": "lithia springs",
            "state": "ga",
            "zip": "30122",
            "phone": "(770) 926-5949",
            "lat": 33.779947086791616,
            "lng": -84.65516292924477
        },
        {
            "name": "laced by j5 vehicle wraps",
            "services": "auto customization",
            "address": "3498 n henry blvd",
            "city": "stockbridge",
            "state": "ga",
            "zip": "30281",
            "phone": "(404) 987-0088",
            "lat": 33.5481213,
            "lng": -84.2522414
        },
        {
            "name": "5 a.m. vinyl",
            "services": "sign making",
            "address": "3550 lawrenceville suwanee rd ste 103",
            "city": "suwanee",
            "state": "ga",
            "zip": "30024",
            "phone": "(678) 559-2959",
            "lat": 34.046615094137735,
            "lng": -84.0591884828881
        },
        {
            "name": "foxy wraps",
            "services": "sign making",
            "address": "130 peach state ct",
            "city": "tyrone",
            "state": "ga",
            "zip": "30290",
            "phone": "(678) 458-2841",
            "lat": 33.44038714290367,
            "lng": -84.61358588257323
        },
        {
            "name": "kranken signs vehicle wraps",
            "services": "vehicle wrap",
            "address": "savannah",
            "city": "ga",
            "state": "31401",
            "zip": "(912) 376-1781",
            "phone": "",
            "lat": 32.0790074,
            "lng": -81.0921335
        },
        {
            "name": "coastal empire tint & vinyl",
            "services": "car window tinting",
            "address": "104 central junction blvd ste c",
            "city": "savannah",
            "state": "ga",
            "zip": "31405",
            "phone": "(912) 800-1088",
            "lat": 32.055789432385666,
            "lng": -81.1315728932355
        },
        {
            "name": "top car wraps inc",
            "services": "vehicle wrap",
            "address": "1018 industrial ct unit 1",
            "city": "suwanee",
            "state": "ga",
            "zip": "30024",
            "phone": "(470) 363-3822",
            "lat": 34.0359024,
            "lng": -84.0888601
        },
        {
            "name": "warped wraps",
            "services": "vehicle wrap",
            "address": "4648 kelly mill rd",
            "city": "cumming",
            "state": "ga",
            "zip": "30040",
            "phone": "(404) 557-4209",
            "lat": 34.2036877,
            "lng": -84.159588
        },
        {
            "name": "wrap city vinyl",
            "services": "sign making",
            "address": "5335 dividend dr",
            "city": "decatur",
            "state": "ga",
            "zip": "30035",
            "phone": "(404) 299-6100",
            "lat": null,
            "lng": null
        },
        {
            "name": "quality wraps llc",
            "services": "auto customization",
            "address": "5292 oakdale rd se",
            "city": "smyrna",
            "state": "ga",
            "zip": "30082",
            "phone": "(770) 853-8731",
            "lat": 33.82599095335316,
            "lng": -84.49569653780321
        },
        {
            "name": "majestic touch custom vinyl wraps",
            "services": "auto customization",
            "address": "5238 hill rd",
            "city": "acworth",
            "state": "ga",
            "zip": "30101",
            "phone": "(678) 878-9587",
            "lat": null,
            "lng": null
        },
        {
            "name": "protective film solution - vinyl wrap",
            "services": "commercial window tinting",
            "address": "paint protection cumming gacar window tinting",
            "city": "cumming",
            "state": "ga",
            "zip": "30041",
            "phone": "(678) 467-5967",
            "lat": null,
            "lng": null
        },
        {
            "name": "atlanta vinyl car wrap",
            "services": "vehicle wrap",
            "address": "636 northside dr nw",
            "city": "atlanta",
            "state": "ga",
            "zip": "30318",
            "phone": "(404) 383-4622",
            "lat": 33.774442642857146,
            "lng": -84.40816914285715
        },
        {
            "name": "wrap it up!",
            "services": "vinyl and more. llc",
            "address": "251 blacks bluff rd sw",
            "city": "rome",
            "state": "ga",
            "zip": "",
            "phone": "",
            "lat": 34.22410464878794,
            "lng": -85.19477923683952
        },
        {
            "name": "wrap it up vinyl & more!",
            "services": "auto customization",
            "address": "713 cooper st",
            "city": "cedartown",
            "state": "ga",
            "zip": "",
            "phone": "",
            "lat": 34.006109525252526,
            "lng": -85.24612025252526
        },
        {
            "name": "smb customs & vinyl wrap",
            "services": "auto customization",
            "address": "2633 bobo rd ste 1",
            "city": "dallas",
            "state": "ga",
            "zip": "",
            "phone": "",
            "lat": null,
            "lng": null
        }
    ],
    "hi": [
        {
            "name": "xero wraps",
            "services": "vehicle wrap",
            "address": "80 sand island access rd unit 234",
            "city": "honolulu",
            "state": "hi",
            "zip": "96819",
            "phone": "(808) 369-2545",
            "lat": 21.32279896197812,
            "lng": -157.8915853682597
        },
        {
            "name": "jpg hawaii",
            "services": "printing services",
            "address": "1860 ala moana blvd ste 420",
            "city": "honolulu",
            "state": "hi",
            "zip": "96815",
            "phone": "(808) 429-7220",
            "lat": 21.2854756,
            "lng": -157.8358188
        },
        {
            "name": "one day signs & graphics llc",
            "services": "sign making",
            "address": "2026 hau st",
            "city": "honolulu",
            "state": "hi",
            "zip": "96819",
            "phone": "(808) 841-4008",
            "lat": 21.328294860309345,
            "lng": -157.88314458756207
        },
        {
            "name": "808wraps",
            "services": "sign making",
            "address": "91-1030 kaiapo st",
            "city": "ewa beach",
            "state": "hi",
            "zip": "96706",
            "phone": "(808) 999-7277",
            "lat": 21.3177523,
            "lng": -158.0251251
        },
        {
            "name": "ina custom signs",
            "services": "sign making",
            "address": "730 kilauea ave ste 1",
            "city": "hilo",
            "state": "hi",
            "zip": "96720",
            "phone": "(808) 935-4491",
            "lat": 19.716898999999998,
            "lng": -155.079455575
        },
        {
            "name": "first class tint",
            "services": "car window tinting",
            "address": "825 keeaumoku st ste 213",
            "city": "honolulu",
            "state": "hi",
            "zip": "96814",
            "phone": "(808) 941-6968",
            "lat": 21.296539029532827,
            "lng": -157.84094779174998
        }
    ],
    "id": [
        {
            "name": "wrap world ink",
            "services": "vehicle wrap",
            "address": "4546 w chinden blvd",
            "city": "garden city",
            "state": "id",
            "zip": "83714",
            "phone": "(208) 323-2453",
            "lat": 43.63597785,
            "lng": -116.25731049539897
        },
        {
            "name": "the wrap shop",
            "services": "vehicle wrap",
            "address": "9165 w chinden blvd ste 103",
            "city": "garden city",
            "state": "id",
            "zip": "83714",
            "phone": "(208) 375-3220",
            "lat": 43.654846649999996,
            "lng": -116.29672532545777
        },
        {
            "name": "cw wraps",
            "services": "sign making",
            "address": "5070 b e seltice way",
            "city": "post falls",
            "state": "id",
            "zip": "83854",
            "phone": "(208) 777-9727",
            "lat": 47.7130475,
            "lng": -116.9312828
        },
        {
            "name": "idaho vinyl wrap",
            "services": "rexburg",
            "address": "rexburg",
            "city": "id",
            "state": "83440",
            "zip": "(208) 244-8283",
            "phone": "",
            "lat": 43.8235163,
            "lng": -111.787022
        },
        {
            "name": "vinyl fire",
            "services": "sign making",
            "address": "10145 n aero dr ste 5",
            "city": "hayden",
            "state": "id",
            "zip": "83835",
            "phone": "(208) 277-9010",
            "lat": null,
            "lng": null
        },
        {
            "name": "anj graphics",
            "services": "graphic designer",
            "address": "3615 e newby st ste 105",
            "city": "nampa",
            "state": "id",
            "zip": "83687",
            "phone": "(208) 502-1023",
            "lat": null,
            "lng": null
        },
        {
            "name": "wrap matrix",
            "services": "vehicle wrap",
            "address": "11481 fairview ave",
            "city": "boise",
            "state": "id",
            "zip": "83713",
            "phone": "(208) 600-2140",
            "lat": 43.6185755,
            "lng": -116.3250596
        },
        {
            "name": "the sign center",
            "services": "sign making",
            "address": "11473 w fairview ave",
            "city": "boise",
            "state": "id",
            "zip": "83713",
            "phone": "(208) 376-6621",
            "lat": 43.618582,
            "lng": -116.32465
        },
        {
            "name": "dynamic detail of idaho - garden city",
            "services": "auto detailing",
            "address": "5308 n. sawyer ave",
            "city": "garden city",
            "state": "id",
            "zip": "83714",
            "phone": "(208) 473-7034",
            "lat": 43.64690375,
            "lng": -116.27040212387097
        },
        {
            "name": "dynamic detail",
            "services": "auto detailing",
            "address": "457 n steelhead way",
            "city": "boise",
            "state": "id",
            "zip": "83704",
            "phone": "(208) 473-7034",
            "lat": 43.6092303,
            "lng": -116.2907296
        },
        {
            "name": "idaho vinyl wrap",
            "services": "rexburg",
            "address": "rexburg",
            "city": "id",
            "state": "83440",
            "zip": "(208) 244-8283",
            "phone": "",
            "lat": 43.8235163,
            "lng": -111.787022
        },
        {
            "name": "idaho vinyl wrap",
            "services": "rexburg",
            "address": "rexburg",
            "city": "id",
            "state": "83440",
            "zip": "(208) 244-8283",
            "phone": "",
            "lat": 43.8235163,
            "lng": -111.787022
        }
    ],
    "il": [
        {
            "name": "its a wrap automotive llc",
            "services": "auto customization",
            "address": "2026 glenn park dr ste a",
            "city": "champaign",
            "state": "il",
            "zip": "61821",
            "phone": "(217) 531-7799",
            "lat": 40.11972562416108,
            "lng": -88.2781412885906
        },
        {
            "name": "status vinyl wraps & detailing",
            "services": "auto detailing",
            "address": "4861 prime pkwy",
            "city": "mchenry",
            "state": "il",
            "zip": "60050",
            "phone": "(630) 338-5914",
            "lat": 42.30799301939242,
            "lng": -88.28630458564405
        },
        {
            "name": "graphios",
            "services": "sign making",
            "address": "1295 jarvis ave",
            "city": "elk grove village",
            "state": "il",
            "zip": "60007",
            "phone": "(773) 413-0070",
            "lat": 42.013058805384,
            "lng": -87.96775883749531
        },
        {
            "name": "wrap-on company",
            "services": "business manufacturing & supply",
            "address": "11756 s austin ave",
            "city": "alsip",
            "state": "il",
            "zip": "60803",
            "phone": "(708) 496-2150",
            "lat": 41.68029103149292,
            "lng": -87.76872195202343
        },
        {
            "name": "gaslight vinyl",
            "services": "printing services",
            "address": "1123 e b st",
            "city": "belleville",
            "state": "il",
            "zip": "62220",
            "phone": "(618) 641-9777",
            "lat": 38.518535,
            "lng": -89.969663
        },
        {
            "name": "universal vinyl wraps",
            "services": "east peoria",
            "address": "il",
            "city": "61611",
            "state": "il",
            "zip": "",
            "phone": "",
            "lat": null,
            "lng": null
        },
        {
            "name": "chicago window tint & vinyl wrap",
            "services": "home window tinting",
            "address": "4800 s richmond st",
            "city": "chicago",
            "state": "il",
            "zip": "60632",
            "phone": "",
            "lat": 41.806151099999994,
            "lng": -87.69850939158292
        },
        {
            "name": "chicago vinyl car wrap",
            "services": "vehicle wrap",
            "address": "2813 n cicero ave",
            "city": "chicago",
            "state": "il",
            "zip": "",
            "phone": "",
            "lat": 41.93180722605242,
            "lng": -87.74649545126977
        },
        {
            "name": "m&t window tint n vinyl wraps",
            "services": "home window tinting",
            "address": "28w570 donald ave",
            "city": "west chicago",
            "state": "il",
            "zip": "60185",
            "phone": "(630) 641-2346",
            "lat": null,
            "lng": null
        },
        {
            "name": "rebel wraps llc",
            "services": "vehicle wrap",
            "address": "lake in the hills",
            "city": "il",
            "state": "60156",
            "zip": "(844) 567-3235",
            "phone": "",
            "lat": 42.1816908,
            "lng": -88.3303618
        },
        {
            "name": "mark your space",
            "services": "business signage",
            "address": "1245 humbracht circle ste c",
            "city": "bartlett",
            "state": "il",
            "zip": "60103",
            "phone": "(630) 289-7082",
            "lat": 41.98335942239253,
            "lng": -88.2185606140854
        },
        {
            "name": "pro vinyl inc",
            "services": "vehicle wrap",
            "address": "641 morse ave",
            "city": "schaumburg",
            "state": "il",
            "zip": "60193",
            "phone": "(630) 237-4526",
            "lat": 42.0002347143086,
            "lng": -88.09651690700369
        },
        {
            "name": "windy city signs and graphics",
            "services": "sign making",
            "address": "4904 n elston ave",
            "city": "chicago",
            "state": "il",
            "zip": "60630",
            "phone": "(312) 448-7556",
            "lat": 41.9696453566638,
            "lng": -87.7428312933286
        },
        {
            "name": "rad vehicle wraps",
            "services": "inc.auto customization",
            "address": "706 e north st",
            "city": "elburn",
            "state": "il",
            "zip": "60119",
            "phone": "(224) 770-1028",
            "lat": 41.89229677672103,
            "lng": -88.46325549864403
        },
        {
            "name": "rebel wraps llc",
            "services": "vehicle wrap",
            "address": "lake in the hills",
            "city": "il",
            "state": "60156",
            "zip": "(844) 567-3235",
            "phone": "",
            "lat": 42.1816908,
            "lng": -88.3303618
        },
        {
            "name": "status vinyl wraps & detailing",
            "services": "auto detailing",
            "address": "4861 prime pkwy",
            "city": "mchenry",
            "state": "il",
            "zip": "60050",
            "phone": "(630) 338-5914",
            "lat": 42.30799301939242,
            "lng": -88.28630458564405
        }
    ],
    "in": [
        {
            "name": "dg graphics",
            "services": "graphic designer",
            "address": "1809 e morgan st",
            "city": "martinsville",
            "state": "in",
            "zip": "46151",
            "phone": "(765) 349-9500",
            "lat": 39.428836,
            "lng": -86.4073337
        },
        {
            "name": "wrap it up",
            "services": "printing services",
            "address": "2300 hancel pkwy ste b",
            "city": "mooresville",
            "state": "in",
            "zip": "46158",
            "phone": "(317) 483-3015",
            "lat": 39.571416,
            "lng": -86.38425
        },
        {
            "name": "shadow graphix inc",
            "services": "graphic designer",
            "address": "4703 w vermont st",
            "city": "indianapolis",
            "state": "in",
            "zip": "46222",
            "phone": "(317) 481-9710",
            "lat": 39.7718239,
            "lng": -86.24303309870561
        },
        {
            "name": "hurricane designs",
            "services": "vehicle wrap",
            "address": "8599 motorsports way",
            "city": "brownsburg",
            "state": "in",
            "zip": "46112",
            "phone": "(317) 698-5187",
            "lat": 39.834265099999996,
            "lng": -86.3688452
        },
        {
            "name": "indy's pro graphix",
            "services": "graphic designer",
            "address": "104 peters st",
            "city": "whitestown",
            "state": "in",
            "zip": "46075",
            "phone": "(317) 873-3788",
            "lat": 39.99625184287612,
            "lng": -86.34383032300792
        },
        {
            "name": "indy auto graphics",
            "services": "printing services",
            "address": "7266 e 86th st",
            "city": "indianapolis",
            "state": "in",
            "zip": "46250",
            "phone": "(317) 660-2077",
            "lat": 39.912594371161916,
            "lng": -86.04136561923231
        },
        {
            "name": "the vinyl creator",
            "services": "business signage",
            "address": "4698 s east riley sq",
            "city": "pleasant lake",
            "state": "in",
            "zip": "46779",
            "phone": "(260) 475-2012",
            "lat": null,
            "lng": null
        },
        {
            "name": "killer wraps",
            "services": "vehicle wrap",
            "address": "2410 enterprise st",
            "city": "indianapolis",
            "state": "in",
            "zip": "46219",
            "phone": "(317) 841-3297",
            "lat": 39.8036113,
            "lng": -86.0331616
        },
        {
            "name": "visable vinyl",
            "services": "sign making",
            "address": "4635 e 250 n",
            "city": "hartford city",
            "state": "in",
            "zip": "47348",
            "phone": "(765) 717-9678",
            "lat": null,
            "lng": null
        },
        {
            "name": "don't drive naked",
            "services": "printing services",
            "address": "6011 e hanna ave",
            "city": "indianapolis",
            "state": "in",
            "zip": "46203",
            "phone": "(317) 784-7775",
            "lat": 39.7086021,
            "lng": -86.06264307543972
        },
        {
            "name": "signarama carmel",
            "services": "in",
            "address": "sign making",
            "city": "514 w carmel dr",
            "state": "IN",
            "zip": "IN",
            "phone": "46032",
            "lat": null,
            "lng": null
        },
        {
            "name": "fellers inc",
            "services": "wholesaler",
            "address": "7768 moller rd",
            "city": "indianapolis",
            "state": "in",
            "zip": "46268",
            "phone": "(800) 654-8405",
            "lat": 39.8929374,
            "lng": -86.257578
        },
        {
            "name": "fastsigns",
            "services": "business signage",
            "address": "9433 e washington st",
            "city": "indianapolis",
            "state": "in",
            "zip": "46229",
            "phone": "(317) 680-5618",
            "lat": 39.774325,
            "lng": -85.999988
        },
        {
            "name": "wrap it up",
            "services": "printing services",
            "address": "2300 hancel pkwy ste b",
            "city": "mooresville",
            "state": "in",
            "zip": "46158",
            "phone": "(317) 483-3015",
            "lat": 39.571416,
            "lng": -86.38425
        },
        {
            "name": "in",
            "services": "motion wraps & print",
            "address": "printing services",
            "city": "5385 cameron st ste 11",
            "state": "NV",
            "zip": "NV",
            "phone": "89118",
            "lat": null,
            "lng": null
        }
    ],
    "ia": [
        {
            "name": "signarama ankeny",
            "services": "ia",
            "address": "sign making",
            "city": "6990ne",
            "state": "IA",
            "zip": "Ankeny",
            "phone": "IA",
            "lat": null,
            "lng": null
        },
        {
            "name": "tint world",
            "services": "car window tinting",
            "address": "3970 nw urbandale dr",
            "city": "urbandale",
            "state": "ia",
            "zip": "50322",
            "phone": "(515) 216-0871",
            "lat": 41.6326887,
            "lng": -93.7579738
        },
        {
            "name": "visual tendencies",
            "services": "car window tinting",
            "address": "2275 16th ave sw",
            "city": "cedar rapids",
            "state": "ia",
            "zip": "52404",
            "phone": "(319) 432-3883",
            "lat": 41.962640691358025,
            "lng": -91.70256036419752
        },
        {
            "name": "hale printprinting services",
            "services": "4662 w kimberly rd",
            "address": "davenport",
            "city": "ia",
            "state": "52806",
            "zip": "(563) 388-9199",
            "phone": "",
            "lat": 41.5235808,
            "lng": -90.5770967
        },
        {
            "name": "airport signs & graphics",
            "services": "sign making",
            "address": "5807 fleur dr",
            "city": "des moines",
            "state": "ia",
            "zip": "50321",
            "phone": "(515) 224-4959",
            "lat": 41.53192135353535,
            "lng": -93.645216
        },
        {
            "name": "sign pro",
            "services": "sign making",
            "address": "619 s 4th st",
            "city": "ames",
            "state": "ia",
            "zip": "50010",
            "phone": "(515) 232-4500",
            "lat": 42.01916530570042,
            "lng": -93.61865422280168
        },
        {
            "name": "fellers",
            "services": "wholesaler",
            "address": "4461 121st st",
            "city": "urbandale",
            "state": "ia",
            "zip": "50323",
            "phone": "(800) 654-8405",
            "lat": 41.641023342221246,
            "lng": -93.78171551663333
        }
    ],
    "ks": [
        {
            "name": "mighty wraps",
            "services": "printing services",
            "address": "520 n west st",
            "city": "wichita",
            "state": "ks",
            "zip": "67203",
            "phone": "(316) 264-1321",
            "lat": 37.69175476574664,
            "lng": -97.38933099421862
        },
        {
            "name": "wrap factory",
            "services": "vehicle wrap",
            "address": "10933 kaw dr",
            "city": "edwardsville",
            "state": "ks",
            "zip": "66111",
            "phone": "(913) 667-3010",
            "lat": 39.063567,
            "lng": -94.837194
        },
        {
            "name": "tint world",
            "services": "car window tinting",
            "address": "1301 e santa fe st",
            "city": "olathe",
            "state": "ks",
            "zip": "66061",
            "phone": "(913) 815-8468",
            "lat": 38.883581,
            "lng": -94.797122
        },
        {
            "name": "wrap effects",
            "services": "auto customization",
            "address": "21977 west 83rd street",
            "city": "shawnee",
            "state": "ks",
            "zip": "66227",
            "phone": "(913) 717-0495",
            "lat": 38.97777356211965,
            "lng": -94.84727270461562
        },
        {
            "name": "wrapped kc llc",
            "services": "auto customization",
            "address": "8336 nieman rd",
            "city": "lenexa",
            "state": "ks",
            "zip": "66214",
            "phone": "(913) 413-0036",
            "lat": 38.97744322175935,
            "lng": -94.71633737308953
        },
        {
            "name": "mighty wraps",
            "services": "printing services",
            "address": "520 n west st",
            "city": "wichita",
            "state": "ks",
            "zip": "67203",
            "phone": "(316) 264-1321",
            "lat": 37.69175476574664,
            "lng": -97.38933099421862
        }
    ],
    "ky": [
        {
            "name": "louisville vinyl car wrap",
            "services": "vinyl record store",
            "address": "615 armory pl",
            "city": "louisville",
            "state": "ky",
            "zip": "40202",
            "phone": "(502) 383-5217",
            "lat": 38.251331,
            "lng": -85.7599059
        },
        {
            "name": "louisville vinyl car wrap",
            "services": "vinyl record store",
            "address": "615 armory pl",
            "city": "louisville",
            "state": "ky",
            "zip": "40202",
            "phone": "(502) 383-5217",
            "lat": 38.251331,
            "lng": -85.7599059
        },
        {
            "name": "dream wraps",
            "services": "vehicle wrap",
            "address": "730 e 9th st",
            "city": "newport",
            "state": "ky",
            "zip": "41071",
            "phone": "(859) 394-4271",
            "lat": 39.092383042562425,
            "lng": -84.48272115307519
        },
        {
            "name": "digital efx wraps",
            "services": "auto customization",
            "address": "2627 holloway rd",
            "city": "louisville",
            "state": "ky",
            "zip": "40299",
            "phone": "(502) 267-2409",
            "lat": null,
            "lng": null
        },
        {
            "name": "cadillac sign & decal",
            "services": "sign making",
            "address": "4646 poplar level rd",
            "city": "louisville",
            "state": "ky",
            "zip": "40213",
            "phone": "(502) 964-4444",
            "lat": 38.179301699999996,
            "lng": -85.69309695389755
        },
        {
            "name": "xclusive auto detailing & window tinting",
            "services": "auto detailing",
            "address": "2211 plantside dr",
            "city": "louisville",
            "state": "ky",
            "zip": "40299",
            "phone": "(502) 632-1758",
            "lat": 38.2099342,
            "lng": -85.520466
        },
        {
            "name": "nicholasville signs",
            "services": "sign making",
            "address": "427 bennett dr",
            "city": "nicholasville",
            "state": "ky",
            "zip": "40356",
            "phone": "(859) 881-0069",
            "lat": null,
            "lng": null
        },
        {
            "name": "sign-a-rama",
            "services": "sign making",
            "address": "4013 nicholasville rd ste 130",
            "city": "lexington",
            "state": "ky",
            "zip": "40503",
            "phone": "(859) 272-7886",
            "lat": 37.9799605,
            "lng": -84.5291015
        },
        {
            "name": "signarama",
            "services": "sign making",
            "address": "7968 tanners gate ln",
            "city": "florence",
            "state": "ky",
            "zip": "41042",
            "phone": "(859) 282-7446",
            "lat": 38.995149530612245,
            "lng": -84.64276171428571
        },
        {
            "name": "signarama elizabethtown",
            "services": "ky",
            "address": "sign making",
            "city": "1609 n dixie hwy ste 117",
            "state": "KY",
            "zip": "KY",
            "phone": "42701",
            "lat": null,
            "lng": null
        },
        {
            "name": "g's vinyl graphics",
            "services": "sign making",
            "address": "7493 happy valley rd",
            "city": "cave city",
            "state": "ky",
            "zip": "42127",
            "phone": "(270) 773-5268",
            "lat": 37.082154,
            "lng": -85.968595
        }
    ],
    "la": [
        {
            "name": "big daddy wrap",
            "services": "commercial printer",
            "address": "1201 macarthur ave ste b",
            "city": "harvey",
            "state": "la",
            "zip": "70058",
            "phone": "(504) 348-9722",
            "lat": null,
            "lng": null
        },
        {
            "name": "tint world",
            "services": "car window tinting",
            "address": "5821 jefferson hwy",
            "city": "elmwood",
            "state": "la",
            "zip": "70123",
            "phone": "(504) 708-5366",
            "lat": 29.942133175207278,
            "lng": -90.18673422436495
        },
        {
            "name": "its a wrap baton rouge",
            "services": "auto detailing",
            "address": "10242 patriot dr",
            "city": "baton rouge",
            "state": "la",
            "zip": "70816",
            "phone": "(225) 454-5767",
            "lat": 30.4282276,
            "lng": -91.0739639
        },
        {
            "name": "broussard wraps",
            "services": "vehicle wrap",
            "address": "15266 highway 44",
            "city": "gonzales",
            "state": "la",
            "zip": "70737",
            "phone": "(225) 622-4580",
            "lat": null,
            "lng": null
        },
        {
            "name": "bm graphics & window films",
            "services": "car window tinting",
            "address": "11866 jefferson hwy",
            "city": "baton rouge",
            "state": "la",
            "zip": "70816",
            "phone": "(225) 275-1993",
            "lat": 30.395963833333333,
            "lng": -91.050082
        },
        {
            "name": "sign design pros",
            "services": "business signage",
            "address": "4021 hwy 90 e",
            "city": "broussard",
            "state": "la",
            "zip": "70518",
            "phone": "(337) 330-2252",
            "lat": null,
            "lng": null
        },
        {
            "name": "signature rides",
            "services": "auto customization",
            "address": "11616 industriplex blvd ste 3",
            "city": "baton rouge",
            "state": "la",
            "zip": "70809",
            "phone": "(225) 218-6768",
            "lat": 30.3862061,
            "lng": -91.0532199
        },
        {
            "name": "excel signs & graphics",
            "services": "sign making",
            "address": "2809 david dr",
            "city": "metairie",
            "state": "la",
            "zip": "70003",
            "phone": "(504) 885-1490",
            "lat": null,
            "lng": null
        },
        {
            "name": "big daddy wrap",
            "services": "commercial printer",
            "address": "1201 macarthur ave ste b",
            "city": "harvey",
            "state": "la",
            "zip": "70058",
            "phone": "(504) 348-9722",
            "lat": null,
            "lng": null
        },
        {
            "name": "bm graphics & window films",
            "services": "car window tinting",
            "address": "11866 jefferson hwy",
            "city": "baton rouge",
            "state": "la",
            "zip": "70816",
            "phone": "(225) 275-1993",
            "lat": 30.395963833333333,
            "lng": -91.050082
        }
    ],
    "me": [
        {
            "name": "bri designs signs & wraps",
            "services": "sign making",
            "address": "83 libby hill rd",
            "city": "oakland",
            "state": "me",
            "zip": "04963",
            "phone": "(207) 649-2888",
            "lat": 44.5343751,
            "lng": -69.7234644
        },
        {
            "name": "caron signs",
            "services": "sign making",
            "address": "41 daves way",
            "city": "hermon",
            "state": "me",
            "zip": "04401",
            "phone": "(207) 848-7889",
            "lat": null,
            "lng": null
        }
    ],
    "md": [
        {
            "name": "dysturbance shop vinyl graphics & wraps",
            "services": "graphic designer",
            "address": "209 edgewood rd",
            "city": "edgewood",
            "state": "md",
            "zip": "",
            "phone": "",
            "lat": 39.4183355,
            "lng": -76.2932061
        },
        {
            "name": "wrapbeast",
            "services": "auto customization",
            "address": "7407 livingston rd ste 101",
            "city": "oxon hill",
            "state": "md",
            "zip": "20745",
            "phone": "(301) 747-4691",
            "lat": 38.78768838572458,
            "lng": -76.99006724571016
        },
        {
            "name": "crucial wraps automotive vinyl specialists",
            "services": "auto customization",
            "address": "128 industry ln",
            "city": "forest hill",
            "state": "md",
            "zip": "21050",
            "phone": "(717) 817-5158",
            "lat": 39.5780208,
            "lng": -76.3728641
        },
        {
            "name": "the wrap center",
            "services": "car window tinting",
            "address": "2144 priest bridge ct ste 19",
            "city": "crofton",
            "state": "md",
            "zip": "21114",
            "phone": "(301) 931-8302",
            "lat": 38.988620941459565,
            "lng": -76.69739246606132
        },
        {
            "name": "wrapbeast",
            "services": "auto customization",
            "address": "7407 livingston rd ste 101",
            "city": "oxon hill",
            "state": "md",
            "zip": "20745",
            "phone": "(301) 747-4691",
            "lat": 38.78768838572458,
            "lng": -76.99006724571016
        },
        {
            "name": "capital wrappers",
            "services": "vehicle wrap",
            "address": "309 howard ave ste c",
            "city": "rockville",
            "state": "md",
            "zip": "20850",
            "phone": "(301) 417-5977",
            "lat": 39.09027457142857,
            "lng": -77.14844934693878
        },
        {
            "name": "the wrap center",
            "services": "car window tinting",
            "address": "2144 priest bridge ct ste 19",
            "city": "crofton",
            "state": "md",
            "zip": "21114",
            "phone": "(301) 931-8302",
            "lat": 38.988620941459565,
            "lng": -76.69739246606132
        },
        {
            "name": "twentyy wraps",
            "services": "auto customization",
            "address": "8176 telegraph rd",
            "city": "severn",
            "state": "md",
            "zip": "21144",
            "phone": "(410) 865-9651",
            "lat": 39.10808854761905,
            "lng": -76.6926799047619
        },
        {
            "name": "crucial wraps automotive vinyl specialists",
            "services": "auto customization",
            "address": "128 industry ln",
            "city": "forest hill",
            "state": "md",
            "zip": "21050",
            "phone": "(717) 817-5158",
            "lat": 39.5780208,
            "lng": -76.3728641
        },
        {
            "name": "maryland wrap house",
            "services": "business-to-business services",
            "address": "4175 hanover pike ste b2",
            "city": "manchester",
            "state": "md",
            "zip": "21102",
            "phone": "(410) 330-0130",
            "lat": 39.6549697,
            "lng": -76.8812394
        },
        {
            "name": "tint world",
            "services": "auto customization",
            "address": "717 n point blvd",
            "city": "baltimore",
            "state": "md",
            "zip": "21224",
            "phone": "(410) 388-0282",
            "lat": 39.2916655,
            "lng": -76.5123836
        },
        {
            "name": "baltimore graphics company",
            "services": "graphic designer",
            "address": "glen burnie",
            "city": "md",
            "state": "21061",
            "zip": "(410) 768-3500",
            "phone": "",
            "lat": 39.1648,
            "lng": -76.6249437
        },
        {
            "name": "signarama",
            "services": "glen burnie",
            "address": "md",
            "city": "sign making",
            "state": "MD",
            "zip": "Curtis Bay",
            "phone": "MD",
            "lat": null,
            "lng": null
        },
        {
            "name": "cca wraps",
            "services": "2321 stewart ave",
            "address": "silver spring",
            "city": "md",
            "state": "20910",
            "zip": "(202) 713-9805",
            "phone": "",
            "lat": 38.9959461,
            "lng": -77.0276231
        },
        {
            "name": "dysturbance shop vinyl graphics & wraps",
            "services": "graphic designer",
            "address": "209 edgewood rd",
            "city": "edgewood",
            "state": "md",
            "zip": "",
            "phone": "",
            "lat": 39.4183355,
            "lng": -76.2932061
        },
        {
            "name": "precision signs & wraps llc",
            "services": "sign making",
            "address": "400 s cannon ave",
            "city": "hagerstown",
            "state": "md",
            "zip": "21740",
            "phone": "(301) 739-7555",
            "lat": 39.634803,
            "lng": -77.71302
        },
        {
            "name": "bg garage",
            "services": "auto detailing",
            "address": "7130 golden ring rd ste 114",
            "city": "baltimore",
            "state": "md",
            "zip": "21221",
            "phone": "(443) 475-1190",
            "lat": 39.3324729,
            "lng": -76.4842503
        },
        {
            "name": "all wrapped up",
            "services": "promotional products & services",
            "address": "8896 shining oceans way",
            "city": "columbia",
            "state": "md",
            "zip": "21045",
            "phone": "(301) 596-4468",
            "lat": 39.18977913904721,
            "lng": -76.80633762571244
        },
        {
            "name": "pro speed custom window tinting",
            "services": "car window tinting",
            "address": "8326 old philadelphia rd",
            "city": "rosedale",
            "state": "md",
            "zip": "21237",
            "phone": "(443) 462-9727",
            "lat": 39.3247321,
            "lng": -76.50292956897492
        },
        {
            "name": "wrapbeast",
            "services": "auto customization",
            "address": "7407 livingston rd ste 101",
            "city": "oxon hill",
            "state": "md",
            "zip": "20745",
            "phone": "(301) 747-4691",
            "lat": 38.78768838572458,
            "lng": -76.99006724571016
        },
        {
            "name": "wrapbeast",
            "services": "auto customization",
            "address": "7407 livingston rd ste 101",
            "city": "oxon hill",
            "state": "md",
            "zip": "20745",
            "phone": "(301) 747-4691",
            "lat": 38.78768838572458,
            "lng": -76.99006724571016
        }
    ],
    "ma": [
        {
            "name": "remarkable wraps & vinyl",
            "services": "sign making",
            "address": "16 montclair dr",
            "city": "auburn",
            "state": "ma",
            "zip": "01501",
            "phone": "(508) 373-4319",
            "lat": 42.203674899999996,
            "lng": -71.8130813
        },
        {
            "name": "remarkable wraps & vinyl",
            "services": "sign making",
            "address": "16 montclair dr",
            "city": "auburn",
            "state": "ma",
            "zip": "01501",
            "phone": "(508) 373-4319",
            "lat": 42.203674899999996,
            "lng": -71.8130813
        },
        {
            "name": "vinyl wraps by vindettaauto detailing",
            "services": "24 payton st",
            "address": "lowell",
            "city": "ma",
            "state": "01852",
            "zip": "",
            "phone": "",
            "lat": 42.6414437,
            "lng": -71.3085329
        },
        {
            "name": "vehicles wrap",
            "services": "vehicle wrap",
            "address": "1 commercial ave",
            "city": "bedford",
            "state": "ma",
            "zip": "01730",
            "phone": "(617) 852-8720",
            "lat": 42.485074,
            "lng": -71.2803086
        },
        {
            "name": "kranken signs vehicle wraps boston",
            "services": "vehicle wrap",
            "address": "boston",
            "city": "ma",
            "state": "02108",
            "zip": "(617) 391-7302",
            "phone": "",
            "lat": 42.3554334,
            "lng": -71.060511
        },
        {
            "name": "big monkey wraps",
            "services": "commercial printer",
            "address": "11 adam rd #8",
            "city": "stoneham",
            "state": "ma",
            "zip": "02180",
            "phone": "(857) 445-4054",
            "lat": 42.4769704,
            "lng": -71.11131411158675
        },
        {
            "name": "remarkable wraps & vinyl",
            "services": "sign making",
            "address": "16 montclair dr",
            "city": "auburn",
            "state": "ma",
            "zip": "01501",
            "phone": "(508) 373-4319",
            "lat": 42.203674899999996,
            "lng": -71.8130813
        },
        {
            "name": "kranken signs vehicle wraps boston",
            "services": "vehicle wrap",
            "address": "boston",
            "city": "ma",
            "state": "02108",
            "zip": "(617) 391-7302",
            "phone": "",
            "lat": 42.3554334,
            "lng": -71.060511
        },
        {
            "name": "vinyl wraps by vindettaauto detailing",
            "services": "24 payton st",
            "address": "lowell",
            "city": "ma",
            "state": "01852",
            "zip": "",
            "phone": "",
            "lat": 42.6414437,
            "lng": -71.3085329
        },
        {
            "name": "vehicles wrap",
            "services": "vehicle wrap",
            "address": "1 commercial ave",
            "city": "bedford",
            "state": "ma",
            "zip": "01730",
            "phone": "(617) 852-8720",
            "lat": 42.485074,
            "lng": -71.2803086
        },
        {
            "name": "seamless wrapsgraphic designer",
            "services": "175 w main st ste 1",
            "address": "millbury",
            "city": "ma",
            "state": "01527",
            "zip": "(800) 617-2390",
            "phone": "",
            "lat": 42.1913817,
            "lng": -71.7603934
        },
        {
            "name": "wrap it up graphix",
            "services": "vehicle wrap",
            "address": "6 aberjona dr",
            "city": "woburn",
            "state": "ma",
            "zip": "01801",
            "phone": "(781) 281-2329",
            "lat": 42.491102999999995,
            "lng": -71.12664699549492
        },
        {
            "name": "wrap it boston",
            "services": "graphic designer",
            "address": "60 sharon st",
            "city": "malden",
            "state": "ma",
            "zip": "02148",
            "phone": "(781) 322-3785",
            "lat": 42.4281043,
            "lng": -71.04593144522967
        },
        {
            "name": "lexington signs & graphics",
            "services": "sign making",
            "address": "29 adams st",
            "city": "burlington",
            "state": "ma",
            "zip": "01803",
            "phone": "(781) 229-6449",
            "lat": 42.469297749999996,
            "lng": -71.21343212478779
        },
        {
            "name": "signarama walpole",
            "services": "ma",
            "address": "sign making",
            "city": "458 high plain st",
            "state": "MA",
            "zip": "MA",
            "phone": "02081",
            "lat": null,
            "lng": null
        },
        {
            "name": "signarama chelmsford",
            "services": "masign making",
            "address": "7 summer st ste 29",
            "city": "chelmsford",
            "state": "ma",
            "zip": "01824",
            "phone": "(978) 459-6088",
            "lat": 42.59382385,
            "lng": -71.34829663504885
        },
        {
            "name": "signs by tomorrow south easton",
            "services": "sign making",
            "address": "65 belmont st",
            "city": "south easton",
            "state": "ma",
            "zip": "02375",
            "phone": "(508) 230-8901",
            "lat": 42.051639300000005,
            "lng": -71.07854311605755
        },
        {
            "name": "signarama braintree",
            "services": "ma",
            "address": "sign making",
            "city": "130 wood rd",
            "state": "MA",
            "zip": "MA",
            "phone": "02184",
            "lat": null,
            "lng": null
        },
        {
            "name": "signarama raynham",
            "services": "ma",
            "address": "sign making",
            "city": "1470 new state hwy unit 21 route 44",
            "state": "MA",
            "zip": "MA",
            "phone": "02767",
            "lat": null,
            "lng": null
        },
        {
            "name": "fastsigns",
            "services": "sign making",
            "address": "15 kearney rd",
            "city": "needham",
            "state": "ma",
            "zip": "02494",
            "phone": "(781) 808-3819",
            "lat": 42.30642105,
            "lng": -71.22766252202581
        },
        {
            "name": "fellers inc",
            "services": "wholesaler",
            "address": "12 linscott rd ste g",
            "city": "woburn",
            "state": "ma",
            "zip": "01801",
            "phone": "(800) 654-8405",
            "lat": 42.50628745,
            "lng": -71.14009780779114
        },
        {
            "name": "vinyl wraps by vindettaauto detailing",
            "services": "24 payton st",
            "address": "lowell",
            "city": "ma",
            "state": "01852",
            "zip": "",
            "phone": "",
            "lat": 42.6414437,
            "lng": -71.3085329
        },
        {
            "name": "vehicles wrap",
            "services": "vehicle wrap",
            "address": "1 commercial ave",
            "city": "bedford",
            "state": "ma",
            "zip": "01730",
            "phone": "(617) 852-8720",
            "lat": 42.485074,
            "lng": -71.2803086
        },
        {
            "name": "kranken signs vehicle wraps boston",
            "services": "vehicle wrap",
            "address": "boston",
            "city": "ma",
            "state": "02108",
            "zip": "(617) 391-7302",
            "phone": "",
            "lat": 42.3554334,
            "lng": -71.060511
        },
        {
            "name": "remarkable wraps & vinyl",
            "services": "sign making",
            "address": "16 montclair dr",
            "city": "auburn",
            "state": "ma",
            "zip": "01501",
            "phone": "(508) 373-4319",
            "lat": 42.203674899999996,
            "lng": -71.8130813
        },
        {
            "name": "big monkey wraps",
            "services": "commercial printer",
            "address": "11 adam rd #8",
            "city": "stoneham",
            "state": "ma",
            "zip": "02180",
            "phone": "(857) 445-4054",
            "lat": 42.4769704,
            "lng": -71.11131411158675
        },
        {
            "name": "wrap it boston",
            "services": "graphic designer",
            "address": "60 sharon st",
            "city": "malden",
            "state": "ma",
            "zip": "02148",
            "phone": "(781) 322-3785",
            "lat": 42.4281043,
            "lng": -71.04593144522967
        },
        {
            "name": "remarkable wraps & vinyl",
            "services": "sign making",
            "address": "16 montclair dr",
            "city": "auburn",
            "state": "ma",
            "zip": "01501",
            "phone": "(508) 373-4319",
            "lat": 42.203674899999996,
            "lng": -71.8130813
        },
        {
            "name": "seamless wrapsgraphic designer",
            "services": "175 w main st ste 1",
            "address": "millbury",
            "city": "ma",
            "state": "01527",
            "zip": "(800) 617-2390",
            "phone": "",
            "lat": 42.1913817,
            "lng": -71.7603934
        },
        {
            "name": "viper graphics",
            "services": "sign making",
            "address": "1872 fall river ave",
            "city": "seekonk",
            "state": "ma",
            "zip": "02771",
            "phone": "(508) 557-0188",
            "lat": 41.78200245,
            "lng": -71.30023614789692
        },
        {
            "name": "vinyl wraps by vindettaauto detailing",
            "services": "24 payton st",
            "address": "lowell",
            "city": "ma",
            "state": "01852",
            "zip": "",
            "phone": "",
            "lat": 42.6414437,
            "lng": -71.3085329
        },
        {
            "name": "vinyl wraps by vindettaauto detailing",
            "services": "24 payton st",
            "address": "lowell",
            "city": "ma",
            "state": "01852",
            "zip": "",
            "phone": "",
            "lat": 42.6414437,
            "lng": -71.3085329
        },
        {
            "name": "kranken signs vehicle wraps boston",
            "services": "vehicle wrap",
            "address": "boston",
            "city": "ma",
            "state": "02108",
            "zip": "(617) 391-7302",
            "phone": "",
            "lat": 42.3554334,
            "lng": -71.060511
        }
    ],
    "mi": [
        {
            "name": "precision vinyl wraps",
            "services": "auto customization",
            "address": "10118 w grand river state route",
            "city": "grand ledge",
            "state": "mi",
            "zip": "48837",
            "phone": "(269) 598-7680",
            "lat": null,
            "lng": null
        },
        {
            "name": "dpi graphics inc.sign making",
            "services": "2270 s wayne rd",
            "address": "westland",
            "city": "mi",
            "state": "48186",
            "zip": "(734) 239-2499",
            "phone": "",
            "lat": 42.3238056,
            "lng": -83.4005321
        },
        {
            "name": "original graphic wraps",
            "services": "car window tinting",
            "address": "23645 van dyke",
            "city": "center line",
            "state": "mi",
            "zip": "48089",
            "phone": "(586) 842-1551",
            "lat": 42.470802,
            "lng": -83.0270026
        },
        {
            "name": "act customs howard city mi ceramic coatings tint detailing paint protection film vinyl wraps",
            "services": "auto customization",
            "address": "19499 w howard city edmore rd",
            "city": "howard city",
            "state": "mi",
            "zip": "49329",
            "phone": "(616) 262-2759",
            "lat": null,
            "lng": null
        },
        {
            "name": "motor city wraps",
            "services": "vehicle wrap",
            "address": "3510 brophy rd",
            "city": "howell",
            "state": "mi",
            "zip": "48855",
            "phone": "(734) 812-4580",
            "lat": null,
            "lng": null
        },